{
  "type": "FeatureCollection",
  "features": [
    {
      "type": "Feature",
      "properties": {
        "stop_id": "9000",
        "stop_name": "12th St/Jefferson",
        "routes": [
          "A"
        ]
      },
      "geometry": {
        "type": "Point",
        "coordinates": [
          -112.055664,
          33.447199
        ]
      }
    },
    {
      "type": "Feature",
      "properties": {
        "stop_id": "9028",
        "stop_name": "12th St/Washington",
        "routes": [
          "A"
        ]
      },
      "geometry": {
        "type": "Point",
        "coordinates": [
          -112.057179,
          33.448248
        ]
      }
    },
    {
      "type": "Feature",
      "properties": {
        "stop_id": "9001",
        "stop_name": "19th Ave/Camelback",
        "routes": [
          "B"
        ]
      },
      "geometry": {
        "type": "Point",
        "coordinates": [
          -112.098823,
          33.509537
        ]
      }
    },
    {
      "type": "Feature",
      "properties": {
        "stop_id": "9029",
        "stop_name": "19th Ave/Camelback",
        "routes": [
          "B"
        ]
      },
      "geometry": {
        "type": "Point",
        "coordinates": [
          -112.098824,
          33.509537
        ]
      }
    },
    {
      "type": "Feature",
      "properties": {
        "stop_id": "6659",
        "stop_name": "19th Ave/Dunlap",
        "routes": [
          "B"
        ]
      },
      "geometry": {
        "type": "Point",
        "coordinates": [
          -112.100848,
          33.567384
        ]
      }
    },
    {
      "type": "Feature",
      "properties": {
        "stop_id": "6660",
        "stop_name": "19th Ave/Dunlap",
        "routes": [
          "B"
        ]
      },
      "geometry": {
        "type": "Point",
        "coordinates": [
          -112.100848,
          33.567384
        ]
      }
    },
    {
      "type": "Feature",
      "properties": {
        "stop_id": "9002",
        "stop_name": "24th St/Jefferson",
        "routes": [
          "A"
        ]
      },
      "geometry": {
        "type": "Point",
        "coordinates": [
          -112.029262,
          33.447229
        ]
      }
    },
    {
      "type": "Feature",
      "properties": {
        "stop_id": "9030",
        "stop_name": "24th St/Washington",
        "routes": [
          "A"
        ]
      },
      "geometry": {
        "type": "Point",
        "coordinates": [
          -112.029285,
          33.448192
        ]
      }
    },
    {
      "type": "Feature",
      "properties": {
        "stop_id": "9777",
        "stop_name": "25th Ave/Dunlap",
        "routes": [
          "B"
        ]
      },
      "geometry": {
        "type": "Point",
        "coordinates": [
          -112.111436,
          33.567576
        ]
      }
    },
    {
      "type": "Feature",
      "properties": {
        "stop_id": "9778",
        "stop_name": "25th Ave/Dunlap",
        "routes": [
          "B"
        ]
      },
      "geometry": {
        "type": "Point",
        "coordinates": [
          -112.111436,
          33.567576
        ]
      }
    },
    {
      "type": "Feature",
      "properties": {
        "stop_id": "9003",
        "stop_name": "38th St/Washington",
        "routes": [
          "A"
        ]
      },
      "geometry": {
        "type": "Point",
        "coordinates": [
          -111.999879,
          33.448102
        ]
      }
    },
    {
      "type": "Feature",
      "properties": {
        "stop_id": "9031",
        "stop_name": "38th St/Washington",
        "routes": [
          "A"
        ]
      },
      "geometry": {
        "type": "Point",
        "coordinates": [
          -111.999879,
          33.448102
        ]
      }
    },
    {
      "type": "Feature",
      "properties": {
        "stop_id": "9004",
        "stop_name": "3rd St/Jefferson",
        "routes": [
          "A"
        ]
      },
      "geometry": {
        "type": "Point",
        "coordinates": [
          -112.069297,
          33.446274
        ]
      }
    },
    {
      "type": "Feature",
      "properties": {
        "stop_id": "9032",
        "stop_name": "3rd St/Washington",
        "routes": [
          "A"
        ]
      },
      "geometry": {
        "type": "Point",
        "coordinates": [
          -112.070595,
          33.448352
        ]
      }
    },
    {
      "type": "Feature",
      "properties": {
        "stop_id": "9005",
        "stop_name": "44th St/Washington",
        "routes": [
          "A"
        ]
      },
      "geometry": {
        "type": "Point",
        "coordinates": [
          -111.98798,
          33.448168
        ]
      }
    },
    {
      "type": "Feature",
      "properties": {
        "stop_id": "9033",
        "stop_name": "44th St/Washington",
        "routes": [
          "A"
        ]
      },
      "geometry": {
        "type": "Point",
        "coordinates": [
          -111.98798,
          33.448168
        ]
      }
    },
    {
      "type": "Feature",
      "properties": {
        "stop_id": "9764",
        "stop_name": "50th St/Washington St",
        "routes": [
          "A"
        ]
      },
      "geometry": {
        "type": "Point",
        "coordinates": [
          -111.975307,
          33.447034
        ]
      }
    },
    {
      "type": "Feature",
      "properties": {
        "stop_id": "9765",
        "stop_name": "50th St/Washington St",
        "routes": [
          "A"
        ]
      },
      "geometry": {
        "type": "Point",
        "coordinates": [
          -111.975231,
          33.446946
        ]
      }
    },
    {
      "type": "Feature",
      "properties": {
        "stop_id": "9006",
        "stop_name": "7th Ave/Camelback",
        "routes": [
          "B"
        ]
      },
      "geometry": {
        "type": "Point",
        "coordinates": [
          -112.083335,
          33.509288
        ]
      }
    },
    {
      "type": "Feature",
      "properties": {
        "stop_id": "9034",
        "stop_name": "7th Ave/Camelback",
        "routes": [
          "B"
        ]
      },
      "geometry": {
        "type": "Point",
        "coordinates": [
          -112.083335,
          33.509288
        ]
      }
    },
    {
      "type": "Feature",
      "properties": {
        "stop_id": "9125",
        "stop_name": "Alma School/Main St",
        "routes": [
          "A"
        ]
      },
      "geometry": {
        "type": "Point",
        "coordinates": [
          -111.855564,
          33.41494
        ]
      }
    },
    {
      "type": "Feature",
      "properties": {
        "stop_id": "9126",
        "stop_name": "Alma School/Main St",
        "routes": [
          "A"
        ]
      },
      "geometry": {
        "type": "Point",
        "coordinates": [
          -111.855564,
          33.41494
        ]
      }
    },
    {
      "type": "Feature",
      "properties": {
        "stop_id": "9780",
        "stop_name": "Baseline/Central Ave",
        "routes": [
          "B"
        ]
      },
      "geometry": {
        "type": "Point",
        "coordinates": [
          -112.073268,
          33.378556
        ]
      }
    },
    {
      "type": "Feature",
      "properties": {
        "stop_id": "9781",
        "stop_name": "Baseline/Central Ave",
        "routes": [
          "B"
        ]
      },
      "geometry": {
        "type": "Point",
        "coordinates": [
          -112.073268,
          33.378556
        ]
      }
    },
    {
      "type": "Feature",
      "properties": {
        "stop_id": "9799",
        "stop_name": "Broadway/Central Ave",
        "routes": [
          "B"
        ]
      },
      "geometry": {
        "type": "Point",
        "coordinates": [
          -112.073291,
          33.405948
        ]
      }
    },
    {
      "type": "Feature",
      "properties": {
        "stop_id": "9800",
        "stop_name": "Broadway/Central Ave",
        "routes": [
          "B"
        ]
      },
      "geometry": {
        "type": "Point",
        "coordinates": [
          -112.073291,
          33.405948
        ]
      }
    },
    {
      "type": "Feature",
      "properties": {
        "stop_id": "9788",
        "stop_name": "Buckeye/Central Ave",
        "routes": [
          "B"
        ]
      },
      "geometry": {
        "type": "Point",
        "coordinates": [
          -112.073738,
          33.435951
        ]
      }
    },
    {
      "type": "Feature",
      "properties": {
        "stop_id": "9789",
        "stop_name": "Buckeye/Central Ave",
        "routes": [
          "B"
        ]
      },
      "geometry": {
        "type": "Point",
        "coordinates": [
          -112.073738,
          33.435951
        ]
      }
    },
    {
      "type": "Feature",
      "properties": {
        "stop_id": "9007",
        "stop_name": "Campbell/Central Ave",
        "routes": [
          "B"
        ]
      },
      "geometry": {
        "type": "Point",
        "coordinates": [
          -112.073768,
          33.501398
        ]
      }
    },
    {
      "type": "Feature",
      "properties": {
        "stop_id": "9035",
        "stop_name": "Campbell/Central Ave",
        "routes": [
          "B"
        ]
      },
      "geometry": {
        "type": "Point",
        "coordinates": [
          -112.073768,
          33.501398
        ]
      }
    },
    {
      "type": "Feature",
      "properties": {
        "stop_id": "9008",
        "stop_name": "Center Pkwy/Washington",
        "routes": [
          "A"
        ]
      },
      "geometry": {
        "type": "Point",
        "coordinates": [
          -111.946605,
          33.438047
        ]
      }
    },
    {
      "type": "Feature",
      "properties": {
        "stop_id": "9036",
        "stop_name": "Center Pkwy/Washington",
        "routes": [
          "A"
        ]
      },
      "geometry": {
        "type": "Point",
        "coordinates": [
          -111.946605,
          33.438047
        ]
      }
    },
    {
      "type": "Feature",
      "properties": {
        "stop_id": "9498",
        "stop_name": "Center/Main St",
        "routes": [
          "A"
        ]
      },
      "geometry": {
        "type": "Point",
        "coordinates": [
          -111.830654,
          33.415096
        ]
      }
    },
    {
      "type": "Feature",
      "properties": {
        "stop_id": "9499",
        "stop_name": "Center/Main St",
        "routes": [
          "A"
        ]
      },
      "geometry": {
        "type": "Point",
        "coordinates": [
          -111.830654,
          33.415096
        ]
      }
    },
    {
      "type": "Feature",
      "properties": {
        "stop_id": "9009",
        "stop_name": "Central Ave/Camelback",
        "routes": [
          "B"
        ]
      },
      "geometry": {
        "type": "Point",
        "coordinates": [
          -112.075192,
          33.50855
        ]
      }
    },
    {
      "type": "Feature",
      "properties": {
        "stop_id": "9037",
        "stop_name": "Central Ave/Camelback",
        "routes": [
          "B"
        ]
      },
      "geometry": {
        "type": "Point",
        "coordinates": [
          -112.075395,
          33.508766
        ]
      }
    },
    {
      "type": "Feature",
      "properties": {
        "stop_id": "9347",
        "stop_name": "Country Club/Main St",
        "routes": [
          "A"
        ]
      },
      "geometry": {
        "type": "Point",
        "coordinates": [
          -111.839073,
          33.415103
        ]
      }
    },
    {
      "type": "Feature",
      "properties": {
        "stop_id": "9353",
        "stop_name": "Country Club/Main St",
        "routes": [
          "A"
        ]
      },
      "geometry": {
        "type": "Point",
        "coordinates": [
          -111.839073,
          33.415103
        ]
      }
    },
    {
      "type": "Feature",
      "properties": {
        "stop_id": "9010",
        "stop_name": "Dorsey Ln/Apache Blvd",
        "routes": [
          "A"
        ]
      },
      "geometry": {
        "type": "Point",
        "coordinates": [
          -111.916899,
          33.414759
        ]
      }
    },
    {
      "type": "Feature",
      "properties": {
        "stop_id": "9038",
        "stop_name": "Dorsey Ln/Apache Blvd",
        "routes": [
          "A"
        ]
      },
      "geometry": {
        "type": "Point",
        "coordinates": [
          -111.916899,
          33.414759
        ]
      }
    },
    {
      "type": "Feature",
      "properties": {
        "stop_id": "9792",
        "stop_name": "Downtown Phx Hub/1st Ave",
        "routes": [
          "B"
        ]
      },
      "geometry": {
        "type": "Point",
        "coordinates": [
          -112.075234,
          33.447823
        ]
      }
    },
    {
      "type": "Feature",
      "properties": {
        "stop_id": "9793",
        "stop_name": "Downtown Phx Hub/Central Ave",
        "routes": [
          "B"
        ]
      },
      "geometry": {
        "type": "Point",
        "coordinates": [
          -112.073778,
          33.447756
        ]
      }
    },
    {
      "type": "Feature",
      "properties": {
        "stop_id": "9794",
        "stop_name": "Downtown Phx Hub/Jefferson St",
        "routes": [
          "A",
          "B"
        ]
      },
      "geometry": {
        "type": "Point",
        "coordinates": [
          -112.074424,
          33.447106
        ]
      }
    },
    {
      "type": "Feature",
      "properties": {
        "stop_id": "9795",
        "stop_name": "Downtown Phx Hub/Washington St",
        "routes": [
          "A"
        ]
      },
      "geometry": {
        "type": "Point",
        "coordinates": [
          -112.074447,
          33.448331
        ]
      }
    },
    {
      "type": "Feature",
      "properties": {
        "stop_id": "9011",
        "stop_name": "Encanto/Central Ave",
        "routes": [
          "B"
        ]
      },
      "geometry": {
        "type": "Point",
        "coordinates": [
          -112.073799,
          33.473655
        ]
      }
    },
    {
      "type": "Feature",
      "properties": {
        "stop_id": "9039",
        "stop_name": "Encanto/Central Ave",
        "routes": [
          "B"
        ]
      },
      "geometry": {
        "type": "Point",
        "coordinates": [
          -112.073799,
          33.473655
        ]
      }
    },
    {
      "type": "Feature",
      "properties": {
        "stop_id": "9762",
        "stop_name": "Gilbert Rd/Main St",
        "routes": [
          "A"
        ]
      },
      "geometry": {
        "type": "Point",
        "coordinates": [
          -111.790741,
          33.415331
        ]
      }
    },
    {
      "type": "Feature",
      "properties": {
        "stop_id": "9763",
        "stop_name": "Gilbert Rd/Main St",
        "routes": [
          "A"
        ]
      },
      "geometry": {
        "type": "Point",
        "coordinates": [
          -111.790741,
          33.415331
        ]
      }
    },
    {
      "type": "Feature",
      "properties": {
        "stop_id": "6655",
        "stop_name": "Glendale/19th Ave",
        "routes": [
          "B"
        ]
      },
      "geometry": {
        "type": "Point",
        "coordinates": [
          -112.099663,
          33.537448
        ]
      }
    },
    {
      "type": "Feature",
      "properties": {
        "stop_id": "6656",
        "stop_name": "Glendale/19th Ave",
        "routes": [
          "B"
        ]
      },
      "geometry": {
        "type": "Point",
        "coordinates": [
          -112.099663,
          33.537448
        ]
      }
    },
    {
      "type": "Feature",
      "properties": {
        "stop_id": "9012",
        "stop_name": "Indian School/Central Ave",
        "routes": [
          "B"
        ]
      },
      "geometry": {
        "type": "Point",
        "coordinates": [
          -112.073773,
          33.495749
        ]
      }
    },
    {
      "type": "Feature",
      "properties": {
        "stop_id": "9040",
        "stop_name": "Indian School/Central Ave",
        "routes": [
          "B"
        ]
      },
      "geometry": {
        "type": "Point",
        "coordinates": [
          -112.073773,
          33.495749
        ]
      }
    },
    {
      "type": "Feature",
      "properties": {
        "stop_id": "9790",
        "stop_name": "Lincoln/1st Ave",
        "routes": [
          "B"
        ]
      },
      "geometry": {
        "type": "Point",
        "coordinates": [
          -112.074963,
          33.441681
        ]
      }
    },
    {
      "type": "Feature",
      "properties": {
        "stop_id": "9791",
        "stop_name": "Lincoln/Central Ave",
        "routes": [
          "B"
        ]
      },
      "geometry": {
        "type": "Point",
        "coordinates": [
          -112.07383,
          33.441667
        ]
      }
    },
    {
      "type": "Feature",
      "properties": {
        "stop_id": "9014",
        "stop_name": "McClintock Dr/Apache Blvd",
        "routes": [
          "A"
        ]
      },
      "geometry": {
        "type": "Point",
        "coordinates": [
          -111.908268,
          33.414727
        ]
      }
    },
    {
      "type": "Feature",
      "properties": {
        "stop_id": "9041",
        "stop_name": "McClintock Dr/Apache Blvd",
        "routes": [
          "A"
        ]
      },
      "geometry": {
        "type": "Point",
        "coordinates": [
          -111.908268,
          33.414727
        ]
      }
    },
    {
      "type": "Feature",
      "properties": {
        "stop_id": "9015",
        "stop_name": "McDowell/Central Ave",
        "routes": [
          "B"
        ]
      },
      "geometry": {
        "type": "Point",
        "coordinates": [
          -112.073811,
          33.464703
        ]
      }
    },
    {
      "type": "Feature",
      "properties": {
        "stop_id": "9042",
        "stop_name": "McDowell/Central Ave",
        "routes": [
          "B"
        ]
      },
      "geometry": {
        "type": "Point",
        "coordinates": [
          -112.073811,
          33.464703
        ]
      }
    },
    {
      "type": "Feature",
      "properties": {
        "stop_id": "9502",
        "stop_name": "Mesa Dr/Main St",
        "routes": [
          "A"
        ]
      },
      "geometry": {
        "type": "Point",
        "coordinates": [
          -111.822135,
          33.415066
        ]
      }
    },
    {
      "type": "Feature",
      "properties": {
        "stop_id": "9508",
        "stop_name": "Mesa Dr/Main St",
        "routes": [
          "A"
        ]
      },
      "geometry": {
        "type": "Point",
        "coordinates": [
          -111.822135,
          33.415066
        ]
      }
    },
    {
      "type": "Feature",
      "properties": {
        "stop_id": "9773",
        "stop_name": "Metro Pkwy",
        "routes": [
          "B"
        ]
      },
      "geometry": {
        "type": "Point",
        "coordinates": [
          -112.118471,
          33.575092
        ]
      }
    },
    {
      "type": "Feature",
      "properties": {
        "stop_id": "9774",
        "stop_name": "Metro Pkwy",
        "routes": [
          "B"
        ]
      },
      "geometry": {
        "type": "Point",
        "coordinates": [
          -112.118471,
          33.575092
        ]
      }
    },
    {
      "type": "Feature",
      "properties": {
        "stop_id": "9016",
        "stop_name": "Mill Ave/3rd St",
        "routes": [
          "A"
        ]
      },
      "geometry": {
        "type": "Point",
        "coordinates": [
          -111.940697,
          33.427452
        ]
      }
    },
    {
      "type": "Feature",
      "properties": {
        "stop_id": "9043",
        "stop_name": "Mill Ave/3rd St",
        "routes": [
          "A"
        ]
      },
      "geometry": {
        "type": "Point",
        "coordinates": [
          -111.9407,
          33.427559
        ]
      }
    },
    {
      "type": "Feature",
      "properties": {
        "stop_id": "9017",
        "stop_name": "Montebello/19th Ave",
        "routes": [
          "B"
        ]
      },
      "geometry": {
        "type": "Point",
        "coordinates": [
          -112.099722,
          33.520585
        ]
      }
    },
    {
      "type": "Feature",
      "properties": {
        "stop_id": "9044",
        "stop_name": "Montebello/19th Ave",
        "routes": [
          "B"
        ]
      },
      "geometry": {
        "type": "Point",
        "coordinates": [
          -112.099722,
          33.520585
        ]
      }
    },
    {
      "type": "Feature",
      "properties": {
        "stop_id": "9775",
        "stop_name": "Mountain View/25th Ave",
        "routes": [
          "B"
        ]
      },
      "geometry": {
        "type": "Point",
        "coordinates": [
          -112.112144,
          33.573217
        ]
      }
    },
    {
      "type": "Feature",
      "properties": {
        "stop_id": "9776",
        "stop_name": "Mountain View/25th Ave",
        "routes": [
          "B"
        ]
      },
      "geometry": {
        "type": "Point",
        "coordinates": [
          -112.112144,
          33.573217
        ]
      }
    },
    {
      "type": "Feature",
      "properties": {
        "stop_id": "6657",
        "stop_name": "Northern/19th Ave",
        "routes": [
          "B"
        ]
      },
      "geometry": {
        "type": "Point",
        "coordinates": [
          -112.099612,
          33.55227
        ]
      }
    },
    {
      "type": "Feature",
      "properties": {
        "stop_id": "6658",
        "stop_name": "Northern/19th Ave",
        "routes": [
          "B"
        ]
      },
      "geometry": {
        "type": "Point",
        "coordinates": [
          -112.099612,
          33.55227
        ]
      }
    },
    {
      "type": "Feature",
      "properties": {
        "stop_id": "9018",
        "stop_name": "Osborn/Central Ave",
        "routes": [
          "B"
        ]
      },
      "geometry": {
        "type": "Point",
        "coordinates": [
          -112.073794,
          33.48686
        ]
      }
    },
    {
      "type": "Feature",
      "properties": {
        "stop_id": "9045",
        "stop_name": "Osborn/Central Ave",
        "routes": [
          "B"
        ]
      },
      "geometry": {
        "type": "Point",
        "coordinates": [
          -112.073794,
          33.48686
        ]
      }
    },
    {
      "type": "Feature",
      "properties": {
        "stop_id": "9786",
        "stop_name": "Pioneer/Central Ave",
        "routes": [
          "B"
        ]
      },
      "geometry": {
        "type": "Point",
        "coordinates": [
          -112.073508,
          33.41844
        ]
      }
    },
    {
      "type": "Feature",
      "properties": {
        "stop_id": "9787",
        "stop_name": "Pioneer/Central Ave",
        "routes": [
          "B"
        ]
      },
      "geometry": {
        "type": "Point",
        "coordinates": [
          -112.073508,
          33.41844
        ]
      }
    },
    {
      "type": "Feature",
      "properties": {
        "stop_id": "9019",
        "stop_name": "Price-101/Apache Blvd",
        "routes": [
          "A"
        ]
      },
      "geometry": {
        "type": "Point",
        "coordinates": [
          -111.888114,
          33.414821
        ]
      }
    },
    {
      "type": "Feature",
      "properties": {
        "stop_id": "9046",
        "stop_name": "Price-101/Apache Blvd",
        "routes": [
          "A"
        ]
      },
      "geometry": {
        "type": "Point",
        "coordinates": [
          -111.888114,
          33.414821
        ]
      }
    },
    {
      "type": "Feature",
      "properties": {
        "stop_id": "9020",
        "stop_name": "Priest Dr/Washington St",
        "routes": [
          "A"
        ]
      },
      "geometry": {
        "type": "Point",
        "coordinates": [
          -111.956107,
          33.442008
        ]
      }
    },
    {
      "type": "Feature",
      "properties": {
        "stop_id": "9047",
        "stop_name": "Priest Dr/Washington St",
        "routes": [
          "A"
        ]
      },
      "geometry": {
        "type": "Point",
        "coordinates": [
          -111.956107,
          33.442008
        ]
      }
    },
    {
      "type": "Feature",
      "properties": {
        "stop_id": "9784",
        "stop_name": "Roeser/Central Ave",
        "routes": [
          "B"
        ]
      },
      "geometry": {
        "type": "Point",
        "coordinates": [
          -112.07335,
          33.398836
        ]
      }
    },
    {
      "type": "Feature",
      "properties": {
        "stop_id": "9785",
        "stop_name": "Roeser/Central Ave",
        "routes": [
          "B"
        ]
      },
      "geometry": {
        "type": "Point",
        "coordinates": [
          -112.07335,
          33.398836
        ]
      }
    },
    {
      "type": "Feature",
      "properties": {
        "stop_id": "9021",
        "stop_name": "Roosevelt/Central Ave",
        "routes": [
          "B"
        ]
      },
      "geometry": {
        "type": "Point",
        "coordinates": [
          -112.074011,
          33.459391
        ]
      }
    },
    {
      "type": "Feature",
      "properties": {
        "stop_id": "9048",
        "stop_name": "Roosevelt/Central Ave",
        "routes": [
          "B"
        ]
      },
      "geometry": {
        "type": "Point",
        "coordinates": [
          -112.073874,
          33.459418
        ]
      }
    },
    {
      "type": "Feature",
      "properties": {
        "stop_id": "9022",
        "stop_name": "Smith-Martin/Apache Blvd",
        "routes": [
          "A"
        ]
      },
      "geometry": {
        "type": "Point",
        "coordinates": [
          -111.900799,
          33.414783
        ]
      }
    },
    {
      "type": "Feature",
      "properties": {
        "stop_id": "9049",
        "stop_name": "Smith-Martin/Apache Blvd",
        "routes": [
          "A"
        ]
      },
      "geometry": {
        "type": "Point",
        "coordinates": [
          -111.900799,
          33.414783
        ]
      }
    },
    {
      "type": "Feature",
      "properties": {
        "stop_id": "9782",
        "stop_name": "Southern/Central Ave",
        "routes": [
          "B"
        ]
      },
      "geometry": {
        "type": "Point",
        "coordinates": [
          -112.073317,
          33.391492
        ]
      }
    },
    {
      "type": "Feature",
      "properties": {
        "stop_id": "9783",
        "stop_name": "Southern/Central Ave",
        "routes": [
          "B"
        ]
      },
      "geometry": {
        "type": "Point",
        "coordinates": [
          -112.073317,
          33.391492
        ]
      }
    },
    {
      "type": "Feature",
      "properties": {
        "stop_id": "8328",
        "stop_name": "Stapley Dr/Main St",
        "routes": [
          "A"
        ]
      },
      "geometry": {
        "type": "Point",
        "coordinates": [
          -111.803099,
          33.415225
        ]
      }
    },
    {
      "type": "Feature",
      "properties": {
        "stop_id": "8329",
        "stop_name": "Stapley Dr/Main St",
        "routes": [
          "A"
        ]
      },
      "geometry": {
        "type": "Point",
        "coordinates": [
          -111.803099,
          33.415225
        ]
      }
    },
    {
      "type": "Feature",
      "properties": {
        "stop_id": "9023",
        "stop_name": "Sycamore/Main St",
        "routes": [
          "A"
        ]
      },
      "geometry": {
        "type": "Point",
        "coordinates": [
          -111.870907,
          33.414855
        ]
      }
    },
    {
      "type": "Feature",
      "properties": {
        "stop_id": "9050",
        "stop_name": "Sycamore/Main St",
        "routes": [
          "A"
        ]
      },
      "geometry": {
        "type": "Point",
        "coordinates": [
          -111.870907,
          33.414855
        ]
      }
    },
    {
      "type": "Feature",
      "properties": {
        "stop_id": "9024",
        "stop_name": "Thomas/Central Ave",
        "routes": [
          "B"
        ]
      },
      "geometry": {
        "type": "Point",
        "coordinates": [
          -112.073761,
          33.481233
        ]
      }
    },
    {
      "type": "Feature",
      "properties": {
        "stop_id": "9051",
        "stop_name": "Thomas/Central Ave",
        "routes": [
          "B"
        ]
      },
      "geometry": {
        "type": "Point",
        "coordinates": [
          -112.073761,
          33.481233
        ]
      }
    },
    {
      "type": "Feature",
      "properties": {
        "stop_id": "9025",
        "stop_name": "University Dr/Rural Rd",
        "routes": [
          "A"
        ]
      },
      "geometry": {
        "type": "Point",
        "coordinates": [
          -111.92697,
          33.420732
        ]
      }
    },
    {
      "type": "Feature",
      "properties": {
        "stop_id": "9052",
        "stop_name": "University Dr/Rural Rd",
        "routes": [
          "A"
        ]
      },
      "geometry": {
        "type": "Point",
        "coordinates": [
          -111.926894,
          33.420815
        ]
      }
    },
    {
      "type": "Feature",
      "properties": {
        "stop_id": "9026",
        "stop_name": "Van Buren/1st Ave",
        "routes": [
          "B"
        ]
      },
      "geometry": {
        "type": "Point",
        "coordinates": [
          -112.075038,
          33.451861
        ]
      }
    },
    {
      "type": "Feature",
      "properties": {
        "stop_id": "9053",
        "stop_name": "Van Buren/Central Ave",
        "routes": [
          "B"
        ]
      },
      "geometry": {
        "type": "Point",
        "coordinates": [
          -112.073955,
          33.451922
        ]
      }
    },
    {
      "type": "Feature",
      "properties": {
        "stop_id": "9027",
        "stop_name": "Veterans Way/College Ave",
        "routes": [
          "A"
        ]
      },
      "geometry": {
        "type": "Point",
        "coordinates": [
          -111.935961,
          33.426069
        ]
      }
    },
    {
      "type": "Feature",
      "properties": {
        "stop_id": "9054",
        "stop_name": "Veterans Way/College Ave",
        "routes": [
          "A"
        ]
      },
      "geometry": {
        "type": "Point",
        "coordinates": [
          -111.935939,
          33.426134
        ]
      }
    },
    {
      "type": "Feature",
      "properties": {
        "stop_id": "9055",
        "stop_name": "Washington/Central Ave",
        "routes": [
          "A",
          "B"
        ]
      },
      "geometry": {
        "type": "Point",
        "coordinates": [
          -112.073866,
          33.44889
        ]
      }
    }
  ]
}