{
  "type": "FeatureCollection",
  "features": [
    {
      "type": "Feature",
      "properties": {
        "stop_id": "08882",
        "stop_name": "AVALON STATION",
        "routes": [
          "67"
        ]
      },
      "geometry": {
        "type": "Point",
        "coordinates": [
          -81.559371,
          41.466562
        ]
      }
    },
    {
      "type": "Feature",
      "properties": {
        "stop_id": "08883",
        "stop_name": "KENMORE STATION",
        "routes": [
          "67"
        ]
      },
      "geometry": {
        "type": "Point",
        "coordinates": [
          -81.553092,
          41.466613
        ]
      }
    },
    {
      "type": "Feature",
      "properties": {
        "stop_id": "08884",
        "stop_name": "LYNNFIELD STATION",
        "routes": [
          "67"
        ]
      },
      "geometry": {
        "type": "Point",
        "coordinates": [
          -81.5459,
          41.466575
        ]
      }
    },
    {
      "type": "Feature",
      "properties": {
        "stop_id": "08885",
        "stop_name": "FARNSLEIGH STATION",
        "routes": [
          "67"
        ]
      },
      "geometry": {
        "type": "Point",
        "coordinates": [
          -81.539804,
          41.466626
        ]
      }
    },
    {
      "type": "Feature",
      "properties": {
        "stop_id": "08901",
        "stop_name": "WOODHILL STATION",
        "routes": [
          "67",
          "68"
        ]
      },
      "geometry": {
        "type": "Point",
        "coordinates": [
          -81.61852,
          41.48273
        ]
      }
    },
    {
      "type": "Feature",
      "properties": {
        "stop_id": "08905",
        "stop_name": "SHAKER & LEE STATION",
        "routes": [
          "68"
        ]
      },
      "geometry": {
        "type": "Point",
        "coordinates": [
          -81.564285,
          41.480718
        ]
      }
    },
    {
      "type": "Feature",
      "properties": {
        "stop_id": "08906",
        "stop_name": "VAN AKEN & LEE STATION",
        "routes": [
          "67"
        ]
      },
      "geometry": {
        "type": "Point",
        "coordinates": [
          -81.565428,
          41.466555
        ]
      }
    },
    {
      "type": "Feature",
      "properties": {
        "stop_id": "08907",
        "stop_name": "SHAKER & WARRENSVILLE STATION",
        "routes": [
          "68"
        ]
      },
      "geometry": {
        "type": "Point",
        "coordinates": [
          -81.536771,
          41.478476
        ]
      }
    },
    {
      "type": "Feature",
      "properties": {
        "stop_id": "08924",
        "stop_name": "E 116TH ST STATION",
        "routes": [
          "67",
          "68"
        ]
      },
      "geometry": {
        "type": "Point",
        "coordinates": [
          -81.60366,
          41.484092
        ]
      }
    },
    {
      "type": "Feature",
      "properties": {
        "stop_id": "08925",
        "stop_name": "SHAKER SQUARE STATION",
        "routes": [
          "67",
          "68"
        ]
      },
      "geometry": {
        "type": "Point",
        "coordinates": [
          -81.591759,
          41.483957
        ]
      }
    },
    {
      "type": "Feature",
      "properties": {
        "stop_id": "08926",
        "stop_name": "COVENTRY STATION",
        "routes": [
          "68"
        ]
      },
      "geometry": {
        "type": "Point",
        "coordinates": [
          -81.584694,
          41.483336
        ]
      }
    },
    {
      "type": "Feature",
      "properties": {
        "stop_id": "08927",
        "stop_name": "SHAKER & SOUTHINGTON STATION",
        "routes": [
          "68"
        ]
      },
      "geometry": {
        "type": "Point",
        "coordinates": [
          -81.577313,
          41.4824
        ]
      }
    },
    {
      "type": "Feature",
      "properties": {
        "stop_id": "08928",
        "stop_name": "SOUTH PARK STATION",
        "routes": [
          "68"
        ]
      },
      "geometry": {
        "type": "Point",
        "coordinates": [
          -81.571549,
          41.481683
        ]
      }
    },
    {
      "type": "Feature",
      "properties": {
        "stop_id": "08929",
        "stop_name": "ATTLEBORO STATION",
        "routes": [
          "68"
        ]
      },
      "geometry": {
        "type": "Point",
        "coordinates": [
          -81.558149,
          41.478824
        ]
      }
    },
    {
      "type": "Feature",
      "properties": {
        "stop_id": "08930",
        "stop_name": "EATON STATION",
        "routes": [
          "68"
        ]
      },
      "geometry": {
        "type": "Point",
        "coordinates": [
          -81.550063,
          41.478466
        ]
      }
    },
    {
      "type": "Feature",
      "properties": {
        "stop_id": "08931",
        "stop_name": "COURTLAND STATION",
        "routes": [
          "68"
        ]
      },
      "geometry": {
        "type": "Point",
        "coordinates": [
          -81.54349,
          41.478468
        ]
      }
    },
    {
      "type": "Feature",
      "properties": {
        "stop_id": "08932",
        "stop_name": "BELVOIR STATION",
        "routes": [
          "68"
        ]
      },
      "geometry": {
        "type": "Point",
        "coordinates": [
          -81.527279,
          41.478553
        ]
      }
    },
    {
      "type": "Feature",
      "properties": {
        "stop_id": "08933",
        "stop_name": "W GREEN RD STATION",
        "routes": [
          "68"
        ]
      },
      "geometry": {
        "type": "Point",
        "coordinates": [
          -81.520524,
          41.478523
        ]
      }
    },
    {
      "type": "Feature",
      "properties": {
        "stop_id": "08934",
        "stop_name": "GREEN RD STATION",
        "routes": [
          "68"
        ]
      },
      "geometry": {
        "type": "Point",
        "coordinates": [
          -81.518187,
          41.478529
        ]
      }
    },
    {
      "type": "Feature",
      "properties": {
        "stop_id": "08935",
        "stop_name": "ASHBY STATION",
        "routes": [
          "67"
        ]
      },
      "geometry": {
        "type": "Point",
        "coordinates": [
          -81.572731,
          41.468585
        ]
      }
    },
    {
      "type": "Feature",
      "properties": {
        "stop_id": "08936",
        "stop_name": "ONAWAY STATION",
        "routes": [
          "67"
        ]
      },
      "geometry": {
        "type": "Point",
        "coordinates": [
          -81.576926,
          41.472228
        ]
      }
    },
    {
      "type": "Feature",
      "properties": {
        "stop_id": "08937",
        "stop_name": "VAN AKEN & SOUTHINGTON STATION",
        "routes": [
          "67"
        ]
      },
      "geometry": {
        "type": "Point",
        "coordinates": [
          -81.580667,
          41.475549
        ]
      }
    },
    {
      "type": "Feature",
      "properties": {
        "stop_id": "08938",
        "stop_name": "S WOODLAND STATION",
        "routes": [
          "67"
        ]
      },
      "geometry": {
        "type": "Point",
        "coordinates": [
          -81.584513,
          41.478892
        ]
      }
    },
    {
      "type": "Feature",
      "properties": {
        "stop_id": "08939",
        "stop_name": "DREXMORE STATION",
        "routes": [
          "67"
        ]
      },
      "geometry": {
        "type": "Point",
        "coordinates": [
          -81.58835,
          41.482374
        ]
      }
    },
    {
      "type": "Feature",
      "properties": {
        "stop_id": "10925",
        "stop_name": "DREXMORE STATION",
        "routes": [
          "67"
        ]
      },
      "geometry": {
        "type": "Point",
        "coordinates": [
          -81.588156,
          41.482138
        ]
      }
    },
    {
      "type": "Feature",
      "properties": {
        "stop_id": "10926",
        "stop_name": "S WOODLAND STATION",
        "routes": [
          "67"
        ]
      },
      "geometry": {
        "type": "Point",
        "coordinates": [
          -81.584942,
          41.479193
        ]
      }
    },
    {
      "type": "Feature",
      "properties": {
        "stop_id": "10927",
        "stop_name": "VAN AKEN & SOUTHINGTON STATION",
        "routes": [
          "67"
        ]
      },
      "geometry": {
        "type": "Point",
        "coordinates": [
          -81.581048,
          41.475809
        ]
      }
    },
    {
      "type": "Feature",
      "properties": {
        "stop_id": "10928",
        "stop_name": "ONAWAY STATION",
        "routes": [
          "67"
        ]
      },
      "geometry": {
        "type": "Point",
        "coordinates": [
          -81.576463,
          41.471893
        ]
      }
    },
    {
      "type": "Feature",
      "properties": {
        "stop_id": "10929",
        "stop_name": "ASHBY STATION",
        "routes": [
          "67"
        ]
      },
      "geometry": {
        "type": "Point",
        "coordinates": [
          -81.572468,
          41.468429
        ]
      }
    },
    {
      "type": "Feature",
      "properties": {
        "stop_id": "10930",
        "stop_name": "AVALON STATION",
        "routes": [
          "67"
        ]
      },
      "geometry": {
        "type": "Point",
        "coordinates": [
          -81.558495,
          41.466609
        ]
      }
    },
    {
      "type": "Feature",
      "properties": {
        "stop_id": "10931",
        "stop_name": "KENMORE STATION",
        "routes": [
          "67"
        ]
      },
      "geometry": {
        "type": "Point",
        "coordinates": [
          -81.553749,
          41.466569
        ]
      }
    },
    {
      "type": "Feature",
      "properties": {
        "stop_id": "10932",
        "stop_name": "VAN AKEN & WARRENSVILLE STN",
        "routes": [
          "67"
        ]
      },
      "geometry": {
        "type": "Point",
        "coordinates": [
          -81.537991,
          41.465969
        ]
      }
    },
    {
      "type": "Feature",
      "properties": {
        "stop_id": "10933",
        "stop_name": "VAN AKEN & WARRENSVILLE STN",
        "routes": [
          "67"
        ]
      },
      "geometry": {
        "type": "Point",
        "coordinates": [
          -81.538026,
          41.46593
        ]
      }
    },
    {
      "type": "Feature",
      "properties": {
        "stop_id": "10934",
        "stop_name": "BELVOIR STATION",
        "routes": [
          "68"
        ]
      },
      "geometry": {
        "type": "Point",
        "coordinates": [
          -81.527278,
          41.478506
        ]
      }
    },
    {
      "type": "Feature",
      "properties": {
        "stop_id": "10935",
        "stop_name": "SHAKER & LEE STATION",
        "routes": [
          "68"
        ]
      },
      "geometry": {
        "type": "Point",
        "coordinates": [
          -81.565822,
          41.480964
        ]
      }
    },
    {
      "type": "Feature",
      "properties": {
        "stop_id": "10936",
        "stop_name": "SOUTH PARK STATION",
        "routes": [
          "68"
        ]
      },
      "geometry": {
        "type": "Point",
        "coordinates": [
          -81.571955,
          41.481686
        ]
      }
    },
    {
      "type": "Feature",
      "properties": {
        "stop_id": "10937",
        "stop_name": "SHAKER & SOUTHINGTON STATION",
        "routes": [
          "68"
        ]
      },
      "geometry": {
        "type": "Point",
        "coordinates": [
          -81.577684,
          41.4824
        ]
      }
    },
    {
      "type": "Feature",
      "properties": {
        "stop_id": "10952",
        "stop_name": "VAN AKEN & LEE STATION",
        "routes": [
          "67"
        ]
      },
      "geometry": {
        "type": "Point",
        "coordinates": [
          -81.565429,
          41.466601
        ]
      }
    },
    {
      "type": "Feature",
      "properties": {
        "stop_id": "10953",
        "stop_name": "LYNNFIELD STATION",
        "routes": [
          "67"
        ]
      },
      "geometry": {
        "type": "Point",
        "coordinates": [
          -81.546558,
          41.46662
        ]
      }
    },
    {
      "type": "Feature",
      "properties": {
        "stop_id": "10954",
        "stop_name": "COVENTRY STATION",
        "routes": [
          "68"
        ]
      },
      "geometry": {
        "type": "Point",
        "coordinates": [
          -81.584274,
          41.483231
        ]
      }
    },
    {
      "type": "Feature",
      "properties": {
        "stop_id": "10955",
        "stop_name": "ATTLEBORO STATION",
        "routes": [
          "68"
        ]
      },
      "geometry": {
        "type": "Point",
        "coordinates": [
          -81.558704,
          41.478968
        ]
      }
    },
    {
      "type": "Feature",
      "properties": {
        "stop_id": "10956",
        "stop_name": "EATON STATION",
        "routes": [
          "68"
        ]
      },
      "geometry": {
        "type": "Point",
        "coordinates": [
          -81.549625,
          41.478513
        ]
      }
    },
    {
      "type": "Feature",
      "properties": {
        "stop_id": "10957",
        "stop_name": "COURTLAND STATION",
        "routes": [
          "68"
        ]
      },
      "geometry": {
        "type": "Point",
        "coordinates": [
          -81.542833,
          41.478516
        ]
      }
    },
    {
      "type": "Feature",
      "properties": {
        "stop_id": "10958",
        "stop_name": "SHAKER & WARRENSVILLE STATION",
        "routes": [
          "68"
        ]
      },
      "geometry": {
        "type": "Point",
        "coordinates": [
          -81.536772,
          41.478523
        ]
      }
    },
    {
      "type": "Feature",
      "properties": {
        "stop_id": "10959",
        "stop_name": "E 79TH BLUE-GREEN STATION",
        "routes": [
          "67",
          "68"
        ]
      },
      "geometry": {
        "type": "Point",
        "coordinates": [
          -81.633287,
          41.480678
        ]
      }
    },
    {
      "type": "Feature",
      "properties": {
        "stop_id": "10960",
        "stop_name": "WOODHILL STATION",
        "routes": [
          "67",
          "68"
        ]
      },
      "geometry": {
        "type": "Point",
        "coordinates": [
          -81.618513,
          41.482684
        ]
      }
    },
    {
      "type": "Feature",
      "properties": {
        "stop_id": "10961",
        "stop_name": "FARNSLEIGH STATION",
        "routes": [
          "67"
        ]
      },
      "geometry": {
        "type": "Point",
        "coordinates": [
          -81.539307,
          41.466545
        ]
      }
    },
    {
      "type": "Feature",
      "properties": {
        "stop_id": "10962",
        "stop_name": "E 116TH ST STATION",
        "routes": [
          "67",
          "68"
        ]
      },
      "geometry": {
        "type": "Point",
        "coordinates": [
          -81.60366,
          41.484046
        ]
      }
    },
    {
      "type": "Feature",
      "properties": {
        "stop_id": "10963",
        "stop_name": "SHAKER SQUARE STATION",
        "routes": [
          "67",
          "68"
        ]
      },
      "geometry": {
        "type": "Point",
        "coordinates": [
          -81.591762,
          41.483911
        ]
      }
    },
    {
      "type": "Feature",
      "properties": {
        "stop_id": "10964",
        "stop_name": "GREEN RD STATION",
        "routes": [
          "68"
        ]
      },
      "geometry": {
        "type": "Point",
        "coordinates": [
          -81.518187,
          41.478576
        ]
      }
    },
    {
      "type": "Feature",
      "properties": {
        "stop_id": "10965",
        "stop_name": "W GREEN RD STATION",
        "routes": [
          "68"
        ]
      },
      "geometry": {
        "type": "Point",
        "coordinates": [
          -81.520524,
          41.47857
        ]
      }
    },
    {
      "type": "Feature",
      "properties": {
        "stop_id": "18916",
        "stop_name": "TOWER CITY STATION TRACK 7 (BLUE/GREEN/WATERFRONT)",
        "routes": [
          "67",
          "68"
        ]
      },
      "geometry": {
        "type": "Point",
        "coordinates": [
          -81.693954,
          41.497821
        ]
      }
    },
    {
      "type": "Feature",
      "properties": {
        "stop_id": "20864",
        "stop_name": "W 65TH ST-LORAIN AV STATION",
        "routes": [
          "66"
        ]
      },
      "geometry": {
        "type": "Point",
        "coordinates": [
          -81.728312,
          41.476643
        ]
      }
    },
    {
      "type": "Feature",
      "properties": {
        "stop_id": "28886",
        "stop_name": "TRI-C CAMPUS DISTRICT (E. 34TH) (BLUE/GREEN)",
        "routes": [
          "67",
          "68"
        ]
      },
      "geometry": {
        "type": "Point",
        "coordinates": [
          -81.665456,
          41.486131
        ]
      }
    },
    {
      "type": "Feature",
      "properties": {
        "stop_id": "28887",
        "stop_name": "TRI-C CAMPUS DISTRICT (E. 34TH) (BLUE/GREEN)",
        "routes": [
          "67",
          "68"
        ]
      },
      "geometry": {
        "type": "Point",
        "coordinates": [
          -81.665356,
          41.486254
        ]
      }
    },
    {
      "type": "Feature",
      "properties": {
        "stop_id": "28888",
        "stop_name": "E 79TH ST RED LINE STATION",
        "routes": [
          "66"
        ]
      },
      "geometry": {
        "type": "Point",
        "coordinates": [
          -81.63326,
          41.485847
        ]
      }
    },
    {
      "type": "Feature",
      "properties": {
        "stop_id": "28889",
        "stop_name": "E 105TH ST-QUINCY AV STATION",
        "routes": [
          "66"
        ]
      },
      "geometry": {
        "type": "Point",
        "coordinates": [
          -81.615719,
          41.493765
        ]
      }
    },
    {
      "type": "Feature",
      "properties": {
        "stop_id": "28890",
        "stop_name": "CEDAR-UNIVERSITY STATION",
        "routes": [
          "66"
        ]
      },
      "geometry": {
        "type": "Point",
        "coordinates": [
          -81.605369,
          41.499856
        ]
      }
    },
    {
      "type": "Feature",
      "properties": {
        "stop_id": "28897",
        "stop_name": "BROOKPARK STATION",
        "routes": [
          "66"
        ]
      },
      "geometry": {
        "type": "Point",
        "coordinates": [
          -81.82356,
          41.419886
        ]
      }
    },
    {
      "type": "Feature",
      "properties": {
        "stop_id": "28899",
        "stop_name": "PURITAS STATION",
        "routes": [
          "66"
        ]
      },
      "geometry": {
        "type": "Point",
        "coordinates": [
          -81.80565,
          41.441397
        ]
      }
    },
    {
      "type": "Feature",
      "properties": {
        "stop_id": "28900",
        "stop_name": "AIRPORT STATION",
        "routes": [
          "66"
        ]
      },
      "geometry": {
        "type": "Point",
        "coordinates": [
          -81.837036,
          41.410861
        ]
      }
    },
    {
      "type": "Feature",
      "properties": {
        "stop_id": "28901",
        "stop_name": "W 25TH ST-OHIO CITY STATION",
        "routes": [
          "66"
        ]
      },
      "geometry": {
        "type": "Point",
        "coordinates": [
          -81.70125,
          41.484708
        ]
      }
    },
    {
      "type": "Feature",
      "properties": {
        "stop_id": "28902",
        "stop_name": "W 25TH ST-OHIO CITY STATION",
        "routes": [
          "66"
        ]
      },
      "geometry": {
        "type": "Point",
        "coordinates": [
          -81.701188,
          41.484709
        ]
      }
    },
    {
      "type": "Feature",
      "properties": {
        "stop_id": "28903",
        "stop_name": "W 65TH ST-LORAIN AV STATION",
        "routes": [
          "66"
        ]
      },
      "geometry": {
        "type": "Point",
        "coordinates": [
          -81.728279,
          41.476682
        ]
      }
    },
    {
      "type": "Feature",
      "properties": {
        "stop_id": "28904",
        "stop_name": "WEST PARK STATION",
        "routes": [
          "66"
        ]
      },
      "geometry": {
        "type": "Point",
        "coordinates": [
          -81.792598,
          41.456898
        ]
      }
    },
    {
      "type": "Feature",
      "properties": {
        "stop_id": "28905",
        "stop_name": "WEST BLVD-CUDELL STATION",
        "routes": [
          "66"
        ]
      },
      "geometry": {
        "type": "Point",
        "coordinates": [
          -81.752723,
          41.480211
        ]
      }
    },
    {
      "type": "Feature",
      "properties": {
        "stop_id": "28906",
        "stop_name": "W 117TH ST-MADISON AV STATION",
        "routes": [
          "66"
        ]
      },
      "geometry": {
        "type": "Point",
        "coordinates": [
          -81.76869,
          41.47566
        ]
      }
    },
    {
      "type": "Feature",
      "properties": {
        "stop_id": "28907",
        "stop_name": "TRISKETT STATION",
        "routes": [
          "66"
        ]
      },
      "geometry": {
        "type": "Point",
        "coordinates": [
          -81.784941,
          41.466198
        ]
      }
    },
    {
      "type": "Feature",
      "properties": {
        "stop_id": "28908",
        "stop_name": "BROOKPARK STATION",
        "routes": [
          "66"
        ]
      },
      "geometry": {
        "type": "Point",
        "coordinates": [
          -81.823507,
          41.419862
        ]
      }
    },
    {
      "type": "Feature",
      "properties": {
        "stop_id": "28909",
        "stop_name": "AIRPORT STATION",
        "routes": [
          "66"
        ]
      },
      "geometry": {
        "type": "Point",
        "coordinates": [
          -81.837031,
          41.410868
        ]
      }
    },
    {
      "type": "Feature",
      "properties": {
        "stop_id": "28910",
        "stop_name": "PURITAS STATION",
        "routes": [
          "66"
        ]
      },
      "geometry": {
        "type": "Point",
        "coordinates": [
          -81.805599,
          41.441371
        ]
      }
    },
    {
      "type": "Feature",
      "properties": {
        "stop_id": "28911",
        "stop_name": "WEST PARK STATION",
        "routes": [
          "66"
        ]
      },
      "geometry": {
        "type": "Point",
        "coordinates": [
          -81.79265,
          41.456923
        ]
      }
    },
    {
      "type": "Feature",
      "properties": {
        "stop_id": "28912",
        "stop_name": "TRISKETT STATION",
        "routes": [
          "66"
        ]
      },
      "geometry": {
        "type": "Point",
        "coordinates": [
          -81.784889,
          41.466172
        ]
      }
    },
    {
      "type": "Feature",
      "properties": {
        "stop_id": "28913",
        "stop_name": "W 117TH ST-MADISON AV STATION",
        "routes": [
          "66"
        ]
      },
      "geometry": {
        "type": "Point",
        "coordinates": [
          -81.768715,
          41.475702
        ]
      }
    },
    {
      "type": "Feature",
      "properties": {
        "stop_id": "28914",
        "stop_name": "WEST BLVD-CUDELL STATION",
        "routes": [
          "66"
        ]
      },
      "geometry": {
        "type": "Point",
        "coordinates": [
          -81.752744,
          41.480167
        ]
      }
    },
    {
      "type": "Feature",
      "properties": {
        "stop_id": "28915",
        "stop_name": "TOWER CITY STATION TRACK 10 WEST",
        "routes": [
          "66"
        ]
      },
      "geometry": {
        "type": "Point",
        "coordinates": [
          -81.694395,
          41.497576
        ]
      }
    },
    {
      "type": "Feature",
      "properties": {
        "stop_id": "28916",
        "stop_name": "TOWER CITY STATION TRACK 13 (BLUE/GREEN/WATERFRONT)",
        "routes": [
          "67",
          "68"
        ]
      },
      "geometry": {
        "type": "Point",
        "coordinates": [
          -81.693627,
          41.497153
        ]
      }
    },
    {
      "type": "Feature",
      "properties": {
        "stop_id": "28917",
        "stop_name": "E 79TH ST RED LINE STATION",
        "routes": [
          "66"
        ]
      },
      "geometry": {
        "type": "Point",
        "coordinates": [
          -81.633267,
          41.485893
        ]
      }
    },
    {
      "type": "Feature",
      "properties": {
        "stop_id": "28918",
        "stop_name": "E 105TH ST-QUINCY AV STATION",
        "routes": [
          "66"
        ]
      },
      "geometry": {
        "type": "Point",
        "coordinates": [
          -81.615683,
          41.493727
        ]
      }
    },
    {
      "type": "Feature",
      "properties": {
        "stop_id": "28919",
        "stop_name": "CEDAR-UNIVERSITY STATION",
        "routes": [
          "66"
        ]
      },
      "geometry": {
        "type": "Point",
        "coordinates": [
          -81.605424,
          41.499878
        ]
      }
    },
    {
      "type": "Feature",
      "properties": {
        "stop_id": "28921",
        "stop_name": "SUPERIOR STATION",
        "routes": [
          "66"
        ]
      },
      "geometry": {
        "type": "Point",
        "coordinates": [
          -81.592037,
          41.523186
        ]
      }
    },
    {
      "type": "Feature",
      "properties": {
        "stop_id": "28922",
        "stop_name": "STOKES-WINDERMERE STATION",
        "routes": [
          "66"
        ]
      },
      "geometry": {
        "type": "Point",
        "coordinates": [
          -81.584985,
          41.530384
        ]
      }
    },
    {
      "type": "Feature",
      "properties": {
        "stop_id": "28923",
        "stop_name": "E 79TH BLUE-GREEN STATION",
        "routes": [
          "67",
          "68"
        ]
      },
      "geometry": {
        "type": "Point",
        "coordinates": [
          -81.633276,
          41.480633
        ]
      }
    },
    {
      "type": "Feature",
      "properties": {
        "stop_id": "28924",
        "stop_name": "LITTLE ITALY-UNIV CIRCLE STATION",
        "routes": [
          "66"
        ]
      },
      "geometry": {
        "type": "Point",
        "coordinates": [
          -81.600465,
          41.508952
        ]
      }
    },
    {
      "type": "Feature",
      "properties": {
        "stop_id": "28925",
        "stop_name": "LITTLE ITALY-UNIV CIRCLE STATION",
        "routes": [
          "66"
        ]
      },
      "geometry": {
        "type": "Point",
        "coordinates": [
          -81.600527,
          41.508951
        ]
      }
    },
    {
      "type": "Feature",
      "properties": {
        "stop_id": "28926",
        "stop_name": "SUPERIOR STATION",
        "routes": [
          "66"
        ]
      },
      "geometry": {
        "type": "Point",
        "coordinates": [
          -81.591988,
          41.523158
        ]
      }
    },
    {
      "type": "Feature",
      "properties": {
        "stop_id": "28927",
        "stop_name": "STOKES-WINDERMERE STATION",
        "routes": [
          "66"
        ]
      },
      "geometry": {
        "type": "Point",
        "coordinates": [
          -81.585035,
          41.530412
        ]
      }
    },
    {
      "type": "Feature",
      "properties": {
        "stop_id": "29002",
        "stop_name": "TOWER CITY STATION TRACK 13 (RED)",
        "routes": [
          "66"
        ]
      },
      "geometry": {
        "type": "Point",
        "coordinates": [
          -81.694318,
          41.497201
        ]
      }
    },
    {
      "type": "Feature",
      "properties": {
        "stop_id": "29003",
        "stop_name": "TOWER CITY STATION TRACK 8 (RED)",
        "routes": [
          "66"
        ]
      },
      "geometry": {
        "type": "Point",
        "coordinates": [
          -81.69426,
          41.497756
        ]
      }
    },
    {
      "type": "Feature",
      "properties": {
        "stop_id": "29004",
        "stop_name": "TRI-C CAMPUS DISTRICT (E. 34TH) (RED)",
        "routes": [
          "66"
        ]
      },
      "geometry": {
        "type": "Point",
        "coordinates": [
          -81.665798,
          41.48648
        ]
      }
    },
    {
      "type": "Feature",
      "properties": {
        "stop_id": "29005",
        "stop_name": "TRI-C CAMPUS DISTRICT (E. 34TH) (RED)",
        "routes": [
          "66"
        ]
      },
      "geometry": {
        "type": "Point",
        "coordinates": [
          -81.665901,
          41.486371
        ]
      }
    },
    {
      "type": "Feature",
      "properties": {
        "stop_id": "29006",
        "stop_name": "E 55TH ST STATION (RED)",
        "routes": [
          "66"
        ]
      },
      "geometry": {
        "type": "Point",
        "coordinates": [
          -81.651907,
          41.480514
        ]
      }
    },
    {
      "type": "Feature",
      "properties": {
        "stop_id": "29007",
        "stop_name": "E 55TH ST STATION (RED)",
        "routes": [
          "66"
        ]
      },
      "geometry": {
        "type": "Point",
        "coordinates": [
          -81.651848,
          41.480325
        ]
      }
    },
    {
      "type": "Feature",
      "properties": {
        "stop_id": "29008",
        "stop_name": "TOWER CITY STATION TRACK 7 (RED)",
        "routes": [
          "66"
        ]
      },
      "geometry": {
        "type": "Point",
        "coordinates": [
          -81.693698,
          41.497805
        ]
      }
    },
    {
      "type": "Feature",
      "properties": {
        "stop_id": "29025",
        "stop_name": "E 55TH ST STATION (BLUE/GREEN)",
        "routes": [
          "67",
          "68"
        ]
      },
      "geometry": {
        "type": "Point",
        "coordinates": [
          -81.651307,
          41.480623
        ]
      }
    },
    {
      "type": "Feature",
      "properties": {
        "stop_id": "30879",
        "stop_name": "E 55TH ST STATION (BLUE/GREEN)",
        "routes": [
          "67",
          "68"
        ]
      },
      "geometry": {
        "type": "Point",
        "coordinates": [
          -81.651271,
          41.480425
        ]
      }
    }
  ]
}